- "name": "KotlinConf 2019 Global Stuttgart"
  "url": "https://www.meetup.com/Kotlin-User-Group-Stuttgart/events/265895399/"
  "city": "Stuttgart"
  "country": "Germany"
  "period": "December 5, 2019"
  "position":
    "lat": "48.760540"
    "lng": "9.161874"

- "name": "KotlinConf 2019 Global @ REWE digital"
  "url": "https://www.meetup.com/de-DE/Kotlin-User-Group-Cologne/events/267588781/"
  "city": "Cologne"
  "country": "Germany"
  "period": "February 4, 2020"
  "position":
    "lat": "50.930779"
    "lng": "6.938399"

- "name": "KotlinConf 2019 Global Yerevan"
  "url": "https://www.meetup.com/GDGYerevan/events/267621119/"
  "city": "Yerevan"
  "country": "Armenia"
  "period": "February 20, 2020"
  "position":
    "lat": "40.177628"
    "lng": "44.512546"

- "name": "KotlinConf 2019 Global at Tokyo"
  "url": "https://connpass.com/event/161544/"
  "city": "Tokyo"
  "country": "Japan"
  "period": "February 4, 2020"
  "position":
    "lat": "35.6817"
    "lng": "139.753882"

- "name": "KotlinConf 2019 Global Hong Kong"
  "url": "https://www.meetup.com/GDG-Hong-Kong/events/267612534/"
  "city": "Hong Kong"
  "country": "Hong Kong"
  "period": "February 29, 2020"
  "position":
    "lat": "22.280137"
    "lng": "114.168731"

- "name": "KotlinConf 2019 Global Shanghai with IQIYI"
  "url": "http://hdxu.cn/X0dCk"
  "city": "Shanghai"
  "country": "China"
  "period": "March 14, 2020"
  "position":
    "lat": "31.230863"
    "lng": "121.470462"

- "name": "KotlinConf 2019 Global Aba"
  "url": "https://www.meetup.com/GDG-Aba/events/267644892/"
  "city": "Aba"
  "country": "Nigeria"
  "period": "February 21, 2020"
  "position":
    "lat": "5.098271"
    "lng": "7.357274"

- "name": "KotlinConf 2019 Global Gowa"
  "url": "bit.ly/37H5eIl"
  "city": "Gowa"
  "country": "Indonesia"
  "period": "February 22, 2020"
  "position":
    "lat": "-5.178648"
    "lng": "119.439282"

- "name": "KotlinConf 2019 Global - Kampala"
  "url": "https://www.meetup.com/GDG-Kampala/events/267671067/"
  "city": "Kampala"
  "country": "Uganda"
  "period": "January 29, 2020"
  "position":
    "lat": "0.343106"
    "lng": "32.591551"

- "name": "KotlinConf 2019 Global Kotlin for Mobile @Taipei"
  "url": "https://www.facebook.com/events/822562441516544/"
  "city": "Taipei"
  "country": "Taiwan"
  "period": "January 18, 2020"
  "position":
    "lat": "25.036796"
    "lng": "121.550530"

- "name": "KotlinConf 2019 Global for Science and Data"
  "url": "https://www.facebook.com/events/2775316549187577/"
  "city": "Taipei"
  "country": "Taiwan"
  "period": "January 19, 2020"
  "position":
    "lat": "25.071795"
    "lng": "121.564237"

- "name": "KotlinConf 2019 Global - Mehsana"
  "url": "https://mehdev.club"
  "city": "Mehsana"
  "country": "India"
  "period": "January 10, 2020"
  "position":
    "lat": "22.792252"
    "lng": "81.385128"

- "name": "KotlinConf 2019 Global by Iganga KUG"
  "url": "https://www.meetup.com/IgangaKotlin/events/267272059/"
  "city": "Iganga"
  "country": "Uganda"
  "period": "January 25, 2020"
  "position":
    "lat": "0.6142"
    "lng": "33.475486"

- "name": "KotlinConf 2019 Global - Shanghai"
  "url": "https://www.meetup.com/Shanghai-GDG/events/267287896/"
  "city": "Shanghai"
  "country": "China"
  "period": "February 22, 2020"
  "position":
    "lat": "31.230863"
    "lng": "121.470462"

- "name": "KotlinConf 2019 Makassar"
  "url": "https://www.dicoding.com/events/2867"
  "city": "Makassar"
  "country": "Indonesia"
  "period": "January 5, 2020"
  "position":
    "lat": "-5.167832"
    "lng": "119.452451"

- "name": "KotlinConf 2019 Global Minneapolis"
  "url": "https://www.meetup.com/Twin-Cities-Kotlin-User-Group/events/267297315/"
  "city": "Minneapolis"
  "country": "United States"
  "period": "January 8, 2020"
  "position":
    "lat": "44.97672"
    "lng": "-93.265949"

- "name": "KotlinConf 2019 Global Effurun"
  "url": "https://www.eventbrite.com/e/kotlinconf-2019-tickets-87066336757"
  "city": "Effurun"
  "country": "Nigeria"
  "period": "January 25, 2020"
  "position":
    "lat": "10.445435"
    "lng": "8.353578"

- "name": "KotlinConf 2019 Global Kaohsiung"
  "url": "https://www.meetup.com/GDGKaohsiung/events/267375595/?isFirstPublish=true"
  "city": "Kaohsiung"
  "country": "Taiwan"
  "period": "February 22, 2020"
  "position":
    "lat": "22.612464"
    "lng": "120.30479"

- "name": "Tech101_KotlinConf 2019 Global"
  "url": "https://www.eventbrite.com/e/kotlinconf-2019-global-tickets-87119198869"
  "city": "Ekpan"
  "country": "Nigeria"
  "period": "January 18, 2020"
  "position":
    "lat": "10.445435"
    "lng": "8.353578"

- "name": "KotlinConf 2019 Taichung"
  "url": "https://www.meetup.com/GDGTaichung/events/267376928/"
  "city": "Taichung"
  "country": "Taiwan"
  "period": "February 8, 2020"
  "position":
    "lat": "24.206388"
    "lng": "120.857425"

- "name": "KotlinConf 2019 Global edición Medellin"
  "url": "https://www.meetup.com/Medellin-Android/events/267249189/"
  "city": "Medellin"
  "country": "Colombia"
  "period": "February 15, 2020"
  "position":
    "lat": "6.243499"
    "lng": "-75.579226"

- "name": "KotlinConf 2019 Global Foumban"
  "url": "https://www.meetup.com/GDGFoumban/events/267105695/"
  "city": "Foumban"
  "country": "Cameroon"
  "period": "January 18, 2020"
  "position":
    "lat": "5.73076"
    "lng": "10.880404"

- "name": "KotlinConf 2019 Global, Lagos"
  "url": "https://www.meetup.com/Kotlin-Nigeria-User-Group/events/266940693/"
  "city": "Lagos"
  "country": "Nigeria"
  "period": "February 1, 2020"
  "position":
    "lat": "6.524379"
    "lng": "3.379206"

- "name": "KotlinConf 2019 Global Khabarovsk, day 2"
  "url": "https://devdv.ru/events/39"
  "city": "Khabarovsk"
  "country": "Russia"
  "period": "January 5, 2020"
  "position":
    "lat": "48.480223"
    "lng": "135.071917"

- "name": "KotlinConf 2019 Global El Alto"
  "url": "https://www.meetup.com/Kotlin-El-Alto/events/266978502/"
  "city": "El Alto"
  "country": "Bolivia"
  "period": "January 18, 2020"
  "position":
    "lat": "-16.53086"
    "lng": "-68.193754"

- "name": "KotlinConf 2019 Global Bayelsa"
  "url": "https://www.eventbrite.com/e/kotlinconf-2019-global-bayelsa-tickets-85377511435"
  "city": "Bayelsa State"
  "country": "Nigeria"
  "period": "Jenuary 18, 2020"
  "position":
    "lat": "4.978263"
    "lng": "6.103373"

- "name": "KotlinConf'19 Global : Jakarta"
  "url": "https://www.dicoding.com/events/2839"
  "city": "West Jakarta"
  "country": "Indonesia"
  "period": "January 11, 2020"
  "position":
    "lat": "-6.201704"
    "lng": "106.781692"

- "name": "Owerri KotlinConf2019 Global"
  "url": "https://www.eventbrite.com/e/85668359369"
  "city": "Owerri"
  "country": "Nigeria"
  "period": "February 15, 2020"
  "position":
    "lat": "5.494993"
    "lng": "7.030206"

- "name": "KotlinConf 2019 Global - Recap"
  "url": "https://www.meetup.com/GDGCoimbatore/events/267101261/"
  "city": "Coimbatore"
  "country": "India"
  "period": "February 8, 2020"
  "position":
    "lat": "11.066176"
    "lng": "76.958643"

- "name": "KotlinConf 2019 Gobal Limbe"
  "url": "https://www.eventbrite.com/e/kotlinconf-2019-global-tickets-85756426781"
  "city": "Limbe"
  "country": "Cameroon"
  "period": "January 25, 2020"
  "position":
    "lat": "4.016314"
    "lng": "9.202494"

- "name": "KotlinConf 2019 Global Nadiad"
  "url": "https://www.dscddu.com/kotlin"
  "city": "Nadiad"
  "country": "India"
  "period": "January 25, 2020"
  "position":
    "lat": "22.685896"
    "lng": "72.860125"

- "name": "KotlinConf 2019 Global Jalingo"
  "url": "http://meetu.ps/e/HwJHX/zYpdg/d"
  "city": "Jalingo"
  "country": "Nigeria"
  "period": "January 25, 2020"
  "position":
    "lat": "8.905103"
    "lng": "11.358056"

- "name": "KotlinConf 2019 Global Dhaka"
  "url": "https://www.facebook.com/events/445946773008974/"
  "city": "Dhaka"
  "country": "Bangladesh"
  "period": "January 18, 2020"
  "position":
    "lat": "23.766732"
    "lng": "90.381109"

- "name": "KotlinConf 2019 Global - Uyo"
  "url": "https://www.meetup.com/GDG-Uyo/events/267134469/"
  "city": "Uyo"
  "country": "Nigeria"
  "period": "January 17, 2020"
  "position":
    "lat": "5.033901"
    "lng": "7.923626"

- "name": "KotlinConf 2019 Global Nagpur"
  "url": "https://www.meetup.com/GDG-Nagpur/events/267139528/"
  "city": "Nagpur"
  "country": "India"
  "period": "January 11, 2020"
  "position":
    "lat": "21.162385"
    "lng": "79.069639"

- "name": "KotlinConf 2019 Global FUK"
  "url": "https://forms.gle/ba5XzcBZqcSoHQYv9"
  "city": "Kashere, Akko"
  "country": "Nigeria"
  "period": "January 11, 2020"
  "position":
    "lat": "9.909428"
    "lng": "11.016624"

- "name": "DSCBUK KotlinConf 2019 Global"
  "url": "https://www.meetup.com/dscbuk/events/267148487/"
  "city": "Kano"
  "country": "Nigeria"
  "period": "January 11, 2020"
  "position":
    "lat": "11.991296"
    "lng": "8.533807"

- "name": "KotlinConf 2019 Global - Jinja"
  "url": "https://www.meetup.com/GDG-Jinja/events/267158662/"
  "city": "Jinja"
  "country": "Uganda"
  "period": "January 31, 2020"
  "position":
    "lat": "0.434663"
    "lng": "33.20953"

- "name": "KotlinConf 2019 Global Sokoto"
  "url": "https://www.meetup.com/gdgsokoto/events/267160208/"
  "city": "Sokoto"
  "country": "Nigeria"
  "period": "January 25, 2020"
  "position":
    "lat": "12.539233"
    "lng": "5.808911"

- "name": "KotlinConf 2019 Global Gombe"
  "url": "https://www.meetup.com/GDG-Gombe/events/267143534/"
  "city": "Gombe"
  "country": "Nigeria"
  "period": "January 25, 2020"
  "position":
    "lat": "10.295046"
    "lng": "11.169985"

- "name": "KotlinConf 2019 Global by Kayunga"
  "url": "https://www.meetup.com/GDG-Kayunga/events/267160770/"
  "city": "Kayunga"
  "country": "Uganda"
  "period": "February 13, 2020"
  "position":
    "lat": "0.695723"
    "lng": "32.904391"

- "name": "KotlinConf 2019 Ajah"
  "url": "https://www.eventbrite.com/e/kotlinconf-2019-ajah-tickets-86122206839"
  "city": "Lagos"
  "country": "Nigeria"
  "period": "December 19, 2019"
  "position":
    "lat": "6.609133"
    "lng": "3.395300"

- "name": "KotlinConf 2019 Global Chicago"
  "url": "https://www.meetup.com/Chicago-Kotlin/events/266382344/"
  "city": "Chicago"
  "country": "United States"
  "period": "January 7, 2020"
  "position":
    "lat": "41.875725"
    "lng": "-87.623757"

- "name": "KotlinConf 2019 Global Khabarovsk"
  "url": "https://leader-id.ru/event/37382/"
  "city": "Khabarovsk"
  "country": "Russia"
  "period": "December 21, 2019"
  "position":
    "lat": "48.480223"
    "lng": "135.071917"

- "name": "KotlinConf 2019 Global - Pune Edition"
  "url": "https://www.facebook.com/groups/punekotlin/"
  "city": "Pune"
  "country": "India"
  "period": "January 11, 2020"
  "position":
    "lat": "18.529289"
    "lng": "73.843663"

- "name": "KotlinConf 2019 Global Osijek"
  "url": "https://www.meetup.com/GDG-Osijek/events/266892887/"
  "city": "Osijek"
  "country": "Croatia"
  "period": "December 5, 2019"
  "position":
    "lat": "45.553766"
    "lng": "18.693708"

- "name": "KotlinConf 2019 Global. Samara"
  "url": "https://haulmont.timepad.ru/event/1125266/"
  "city": "Samara"
  "country": "Russia"
  "period": "December 5-6, 2019"
  "position":
    "lat": "53.195538"
    "lng": "50.101783"

- "name": "KotlinConf 2019 Global. Togliatti"
  "url": "https://haulmont.timepad.ru/event/1125263/"
  "city": "Togliatti"
  "country": "Russia"
  "period": "December 5-6, 2019"
  "position":
    "lat": "53.5088"
    "lng": "49.41918"

- "name": "KotlinConf 2019 Global. Saratov"
  "url": "https://haulmont.timepad.ru/event/1125262/"
  "city": "Saratov"
  "country": "Russia"
  "period": "December 5-6, 2019"
  "position":
    "lat": "51.533103"
    "lng": "46.034158"

- "name": "KotlinConf 2019 Global SEVILLA"
  "url": "https://www.meetup.com/SVQJUG/events/266889302"
  "city": "Seville"
  "country": "Spain"
  "period": "December 14, 2019"
  "position":
    "lat": "37.416615"
    "lng": "-5.966637"

- "name": "KotlinConf 2019 Global Stockholm"
  "url": "https://www.meetup.com/en-AU/Stockholm-Kotlin-Pubs-Meetup/events/266878521/"
  "city": "Stockholm"
  "country": "Sweden"
  "period": "January 23, 2019"
  "position":
    "lat": "59.325"
    "lng": "18.070897"

- "name": "KotlinConf 2019 Global Lagos"
  "url": "https://www.meetup.com/Android-Nigeria-Meetup/events/266689515/"
  "city": "Lagos"
  "country": "Nigeria"
  "period": "January 18, 2020"
  "position":
    "lat": "6.641139"
    "lng": "3.309528"

- "name": "KotlinConf 2019 La Paz"
  "url": "https://www.eventbrite.es/e/entradas-kotlinconf-2019-global-bth-site-83507435989"
  "city": "La Paz"
  "country": "Bolivia"
  "period": "January 25, 2020"
  "position":
    "lat": "-16.513403"
    "lng": "-68.124361"

- "name": "KotlinConf 2019 New Delhi"
  "url": "https://www.meetup.com/KotlinDelhi/events/266731216/"
  "city": "New Delhi"
  "country": "India"
  "period": "January 18, 2020"
  "position":
    "lat": "28.613506"
    "lng": "77.207917"

- "name": "KotlinConf 2019 St. Petersburg @JetBrains"
  "url": "https://jetbrains-ev-org.timepad.ru/event/1131220/"
  "city": "Saint Petersburg, Primorskiy Prospekt"
  "country": "Russia"
  "period": "December 5-6, 2019"
  "position":
    "lat": "59.981608"
    "lng": "30.214657"

- "name": "Kotlin Night-KotlinConf 2019 Global"
  "url": "https://www.wetogether.co/events/10036"
  "city": "Taipei"
  "country": "Taiwan"
  "period": "December 12, 2019"
  "position":
    "lat": "25.033279"
    "lng": "121.544173"

- "name": "GDG Helwan - KotlinConf 2019 Global"
  "url": "https://www.meetup.com/GDG-Helwan/events/266433824/"
  "city": "Cairo"
  "country": "Egypt"
  "period": "January 18, 2020"
  "position":
    "lat": "30.066924"
    "lng": "31.274389"

- "name": "KotlinConf 2019 Global Akoko"
  "url": "https://www.meetup.com/GDG-Akoko/events/266457881/"
  "city": "Akoko"
  "country": "Nigeria"
  "period": "December 6, 2019"
  "position":
    "lat": "7.473981"
    "lng": "5.737881"

- "name": "KotlinConf 2019 Global Ondo"
  "url": "https://www.meetup.com/Kotlin-Ondo-User-Group/events/266458109/"
  "city": "Ondo"
  "country": "Nigeria"
  "period": "December 21, 2019"
  "position":
    "lat": "7.100005"
    "lng": "4.841693"

- "name": "KotlinConf 2019 Global Yola"
  "url": "https://web.facebook.com/events/426462841610267/"
  "city": "Yola"
  "country": "Nigeria"
  "period": "December 14, 2019"
  "position":
    "lat": "9.258046"
    "lng": "12.46291"

- "name": "KotlinConf 2019 Global Warri"
  "url": "https://www.meetup.com/Kotlin-Warri/events/266488386/"
  "city": "Warri"
  "country": "Nigeria"
  "period": "December 14, 2019"
  "position":
    "lat": "5.527284"
    "lng": "5.772059"

- "name": "KotlinConf 2019 Global Delta"
  "url": "https://www.eventbrite.com/e/kotlinconf-2019-global-delta-tickets-82191967387"
  "city": "Warri, Sapele Rd."
  "country": "Nigeria"
  "period": "December 6, 2019"
  "position":
    "lat": "5.543414"
    "lng": "5.778244"

- "name": "KotlinConf 2019 Global Jos"
  "url": "https://www.meetup.com/Kotlin-Jos-Nigeria/events/266489157/"
  "city": "Jos"
  "country": "Nigeria"
  "period": "December 9, 2019"
  "position":
    "lat": "9.879046"
    "lng": "8.874455"

- "name": "KotlinConf2019Global Benin"
  "url": "https://www.meetup.com/Kotlin-Benin/events/266329049/"
  "city": "Benin City"
  "country": "Nigeria"
  "period": "January 18, 2020"
  "position":
    "lat": "6.349840"
    "lng": "5.617251"

- "name": "KotlinConf 2019 Global Lebanon"
  "url": "https://www.meetup.com/GDG-Coast-Lebanon/events/266533643/"
  "city": "Beirut"
  "country": "Lebanon"
  "period": "February 7, 2020"
  "position":
    "lat": "33.835934"
    "lng": "35.504438"

- "name": "KotlinConf 2019 Global @Kotlin Toronto"
  "url": "https://www.meetup.com/Kotlin-Toronto/events/266810362/"
  "city": "Toronto"
  "country": "Canada"
  "period": "December 5, 2019"
  "position":
    "lat": "43.644488"
    "lng": "-79.400786"

- "name": "KotlinConf 2019 Global Nizhny Novgorod: Keynotes"
  "url": "https://www.meetup.com/kotlin_nn/events/266630874/"
  "city": "Nizhny Novgorod"
  "country": "Russia"
  "period": "December 5, 2019"
  "position":
    "lat": "56.322884"
    "lng": "44.004406"

- "name": "KotlinConf 2019 Global Munich"
  "url": "https://www.meetup.com/Kotlin-User-Group-Munich/events/266658785/"
  "city": "Munich"
  "country": "Germany"
  "period": "February 26, 2020"
  "position":
    "lat": "48.137627"
    "lng": "11.523315"

- "name": "KotlinConf 2019 Global powered by Knowit"
  "url": "https://www.knowit.se/event/kotlinconf-2019-global/"
  "city": "Sweden"
  "country": "Stockholm"
  "period": "December 5, 2019"
  "position":
    "lat": "59.331533"
    "lng": "18.059901"

- "name": "Kampala Kotlin Conf 2019 Global"
  "url": "https://www.facebook.com/events/2812787795433131/"
  "city": "Kampala"
  "country": "Uganda"
  "period": "December 20, 2019"
  "position":
    "lat": "0.3228449"
    "lng": "32.5741849"

- "name": "KotlinConf 2019 Global Kano"
  "url": "https://www.meetup.com/Kotlin-Kano-User-Group-Nigeria/events/265924969/"
  "city": "Kano"
  "country": "Nigeria"
  "period": "December 21, 2019"
  "position":
    "lat": "11.996902"
    "lng": "8.563543"

- "name": "KotlinConf Global 2019- Curitiba"
  "url": "https://www.meetup.com/pt-BR/KotlinCWB/events/265941182/"
  "city": "Curitiba"
  "country": "Brazil"
  "period": "January 25, 2020"
  "position":
    "lat": "-25.459524"
    "lng": "-49.248483"

- "name": "KotlinConf 2019 Global Graz Livestream @Moshbit"
  "url": "https://studo.co/blog/2019/10/28/kotlinconf-2019-global-graz-livestream-moshbit/"
  "city": "Graz"
  "country": "Austria"
  "period": "December 5, 2019"
  "position":
    "lat": "47.067452"
    "lng": "15.4390543"

- "name": "KotlinConf 2019 Global: Breakfast for Kotliners"
  "url": "https://www.meetup.com/Kotlin-Budapest/events/266047544/"
  "city": "Budapest"
  "country": "Hungary"
  "period": "December 5, 2019"
  "position":
    "lat": "47.487700"
    "lng": "19.061007"

- "name": "December Meetup (KotlinConf 2019 Global)"
  "url": "https://www.meetup.com/BlrKotlin/events/266428867/?_xtd=gqFyqTEyMjE4OTYyMqFwp2FuZHJvaWQ&from=ref"
  "city": "Bangalore"
  "country": "India"
  "period": "December 7, 2019"
  "position":
    "lat": "12.9717506"
    "lng": "77.6037356"

- "name": "KotlinConf 2019 Global: Jalandhar"
  "url": "http://nvite.co/28prdy"
  "city": "Jalandhar"
  "country": "India"
  "period": "December 5, 2019"
  "position":
    "lat": "31.3175745"
    "lng": "75.5845462"

- "name": "KotlinConf 2019 Global Surat"
  "url": "https://www.meetup.com/kotlinsurat/events/266131522/"
  "city": "Surat"
  "country": "India"
  "period": "December 15, 2019"
  "position":
    "lat": "21.196374"
    "lng": "72.822279"

- "name": "Lubumbashi KotlinConf 2019 Global"
  "url": "http://meetu.ps/e/HnJFH/JVT02/d"
  "city": "Lubumbashi"
  "country": "Democratic Republic of the Congo"
  "period": "January 25,2020"
  "position":
    "lat": "-11.6757937"
    "lng": "27.4793119"

- "name": "Bauchi watch party - KotlinConf 2019 Global"
  "url": "https://www.meetup.com/Bauchi-Kotlin-User-Group/events/266254198/"
  "city": "Bauchi"
  "country": "Nigeria"
  "period": "December 14, 2019"
  "position":
    "lat": "10.2807092"
    "lng": "9.7862337"

- "name": "KotlinConf 2019 Global – Turkey KUG"
  "url": "http://kotlinveandroid.com/kotlinconf-2019-global-turkey-kug"
  "city": "Besni Adıyaman"
  "country": "Turkey"
  "period": "February 24, 2020"
  "position":
    "lat": "37.690557"
    "lng": "37.851978"

- "name": "Kotlin Conf 2019 Global Lapai"
  "url": "https://www.meetup.com/Kotlin-Lapai-User-Group/events/266134225/"
  "city": "Lapai"
  "country": "Nigeria"
  "period": "December 14, 2019"
  "position":
    "lat": "9.065646"
    "lng": "6.570655"

- "name": "KotlinConf 2019 Global Abuja"
  "url": "https://www.meetup.com/Kotlin-Abuja-User-Group-Nigeria/events/266141308/"
  "city": "Abuja"
  "country": "Nigeria"
  "period": "December 7, 2019"
  "position":
    "lat": "9.074534"
    "lng": "7.475354"

- "name": "KotlinConf 2019 Global Accra"
  "url": "http://groupspaces.com/AccraGhanaKotlinUserGroup/item/1237490"
  "city": "Accra"
  "country": "Ghana"
  "period": "December 14, 2019"
  "position":
    "lat": "5.548712"
    "lng": "-0.192805"

- "name": "KotlinConf 2019 Global Minna"
  "url": "https://www.meetup.com/Kotlin-Minna-User-Group-Nigeria/events/266207710/"
  "city": "Minna"
  "country": "Nigeria"
  "period": "January 11, 2020"
  "position":
    "lat": "9.611604"
    "lng": "6.525878"

- "name": "KotlinConf 2019 Global Rivers"
  "url": "https://web.facebook.com/events/2264001663889922/"
  "city": "Bonny Island, Rivers"
  "country": "Nigeria"
  "period": "December 17,2019"
  "position":
    "lat": "4.429955"
    "lng": "7.178345"

- "name": "Kotlin con(f) churros! - KotlinConf 2019 Global Barcelona"
  "url": "https://www.meetup.com/GDG-Barcelona/events/266282699/"
  "city": "Barcelona"
  "country": "Spain"
  "period": "December 5, 2019"
  "position":
    "lat": "41.405920"
    "lng": "2.186489"

- "name": "KotlinConf 2019 Global - CDMX"
  "url": "https://www.meetup.com/Kotlin-CDMX/events/266324916/"
  "city": "Mexico City"
  "country": "Mexico"
  "period": "December 19,2020"
  "position":
    "lat": "19.408182"
    "lng": "-99.171404"

- "name": "KotlinConf 2019 Global Belarus"
  "url": "https://bkug.by/2019/11/11/kotlinconf-2019-global-belarus/"
  "city": "Minsk"
  "country": "Belarus"
  "period": "December 10, 2019"
  "position":
    "lat": "53.890063"
    "lng": "27.569502"
